City_ID,City,Lat,Lng,Max Temp,Humidity,Cloudiness,Wind Speed,Country,Date
0,port-aux-francais,-49.35,70.2167,4.64,79,85,8.01,TF,1702276313
1,belyy yar,53.6039,91.3903,-28.06,76,90,0.0,RU,1702276313
2,sabang,5.8933,95.3214,27.93,73,47,1.72,ID,1702276313
3,camabatela,-8.1881,15.375,18.09,100,100,0.8,AO,1702276313
4,yellowknife,62.456,-114.3525,-13.1,97,75,6.69,CA,1702276313
5,papao,-17.75,-149.55,27.82,81,39,11.7,PF,1702276313
6,atafu village,-8.5421,-172.5159,29.15,74,100,5.74,TK,1702276313
7,prado,-17.3411,-39.2208,22.54,94,20,2.25,BR,1702276015
8,galt,38.2546,-121.3,10.56,84,100,1.72,US,1702276277
9,grytviken,-54.2811,-36.5092,5.0,95,100,6.96,GS,1702276313
10,weno,7.4515,151.8468,29.97,74,75,3.6,FM,1702276313
11,olonkinbyen,70.9221,-8.7187,-1.07,67,100,6.81,SJ,1702276314
12,puerto natales,-51.7236,-72.4875,4.91,93,99,1.31,CL,1702276314
13,sekovici,44.2986,18.8528,-2.75,85,100,2.73,BA,1702276314
14,gasa,31.5,34.4667,18.62,51,0,2.48,PS,1702276116
15,las trojes,14.0667,-85.9833,18.78,96,39,1.56,HN,1702276314
16,bethel,41.3712,-73.414,8.31,87,100,2.57,US,1702276169
17,mount pearl,47.5166,-52.7813,0.74,94,75,5.14,CA,1702276314
18,eagle point,42.4726,-122.8028,6.4,92,100,0.0,US,1702276314
19,carnarvon,-24.8667,113.6333,32.7,31,0,5.61,AU,1702276314
20,adamstown,-25.066,-130.1015,21.39,59,0,3.73,PN,1702276314
21,waitangi,-43.9535,-176.5597,13.23,71,5,2.24,NZ,1702276314
22,edinburgh of the seven seas,-37.0676,-12.3116,13.51,75,98,9.17,SH,1702276314
23,anadyr,64.75,177.4833,-26.67,82,20,4.92,RU,1702276314
24,tsiombe,-25.3,45.4833,34.59,36,98,2.14,MG,1702276315
25,stanley,54.868,-1.6985,4.18,96,75,5.14,GB,1702276315
26,tiksi,71.6872,128.8694,-25.25,100,100,3.42,RU,1702276315
27,cascais,38.6979,-9.4215,15.28,96,46,4.02,PT,1702276315
28,college,64.8569,-147.8028,-17.53,75,100,2.06,US,1702276315
29,chonchi,-42.6128,-73.8092,10.07,98,98,1.17,CL,1702276315
30,happy valley-goose bay,53.3168,-60.3315,3.17,75,100,3.09,CA,1702276315
31,corralillo,22.9819,-80.5856,23.87,87,74,3.69,CU,1702276315
32,nemuro,43.3236,145.575,0.12,52,74,4.5,JP,1702276315
33,tukrah,32.5341,20.5791,16.75,67,63,9.69,LY,1702276316
34,ko lanta,7.5336,99.0865,29.32,69,100,1.45,TH,1702276316
35,west island,-12.1568,96.8225,28.99,70,65,6.17,CC,1702276316
36,iqaluit,63.7506,-68.5145,-9.15,78,100,13.89,CA,1702276316
37,laojunmiao,39.8333,97.7333,4.92,19,6,2.16,CN,1702276316
38,tsumeb,-19.2333,17.7167,27.42,19,95,4.76,NA,1702276316
39,new norfolk,-42.7826,147.0587,18.17,45,9,2.3,AU,1702276316
40,avarua,-21.2078,-159.775,25.03,88,75,8.75,CK,1702276316
41,saudarkrokur,65.7461,-19.6394,-2.37,91,100,4.57,IS,1702276316
42,bredasdorp,-34.5322,20.0403,20.5,53,4,2.36,ZA,1702276317
43,salalah,17.0151,54.0924,29.05,20,20,6.69,OM,1702276317
44,mabaruma,8.2,-59.7833,22.83,99,33,0.7,GY,1702276317
45,polyarnyy,69.1989,33.4478,-13.78,92,81,6.75,RU,1702276317
46,kolonia,50.9333,6.95,11.13,76,100,7.2,DE,1702276111
47,blackmans bay,-43.0167,147.3167,17.51,64,18,4.41,AU,1702276317
48,albany,42.6001,-73.9662,3.98,92,100,0.45,US,1702276202
49,kayangel,8.0823,134.7173,28.9,78,61,7.0,PW,1702276317
50,kenora,49.8167,-94.4337,-6.46,93,100,4.63,CA,1702276317
51,wailua homesteads,22.0669,-159.378,23.75,90,40,4.63,US,1702276317
52,judenburg,47.1667,14.6667,-1.6,100,75,2.57,AT,1702276317
53,longyearbyen,78.2186,15.6401,-3.09,93,100,6.69,SJ,1702276317
54,alta,69.9689,23.2717,-7.41,76,0,4.12,NO,1702276318
55,port alfred,-33.5906,26.891,21.21,78,29,0.89,ZA,1702276318
56,ust-nera,64.5667,143.2,-24.12,99,94,3.32,RU,1702276318
57,kosh-agach,50.0,88.6667,-27.05,90,100,0.52,RU,1702276318
58,gadzhiyevo,69.2551,33.3362,-14.94,95,76,6.47,RU,1702276318
59,talnakh,69.4865,88.3972,-28.22,98,100,4.65,RU,1702276318
60,mawlaik,23.6333,94.4167,27.35,51,55,0.85,MM,1702276318
61,lebu,-37.6167,-73.65,12.49,90,43,4.26,CL,1702276318
62,pacific grove,36.6177,-121.9166,13.57,58,0,3.09,US,1702276318
63,puerto penasco,31.3167,-113.5333,17.32,27,29,5.26,MX,1702276318
64,labytnangi,66.6572,66.4183,-27.9,99,100,4.01,RU,1702276318
65,metlili chaamba,32.2667,3.6333,12.52,50,0,2.57,DZ,1702276319
66,iskateley,67.6803,53.1512,-19.24,88,100,8.56,RU,1702276319
67,piti village,13.4626,144.6933,31.49,69,20,5.66,GU,1702276319
68,ribeira grande,38.5167,-28.7,16.54,78,5,4.02,PT,1702276319
69,ulanhot,46.0833,122.0833,-14.88,45,100,1.38,CN,1702276319
70,hamilton,39.1834,-84.5333,1.34,82,100,5.14,US,1702276273
71,la passe,45.5549,-0.8967,15.13,96,100,8.88,FR,1702276319
72,nova sintra,14.8667,-24.7167,22.82,70,33,5.99,CV,1702276319
73,puerto ayora,-0.7393,-90.3518,23.63,89,10,3.06,EC,1702276319
74,pyay,18.8167,95.2167,30.35,55,13,1.89,MM,1702276319
75,parasia,22.2,78.7667,22.42,41,0,2.44,IN,1702276319
76,veraval,20.9,70.3667,27.65,36,9,2.88,IN,1702276319
77,hawaiian paradise park,19.5933,-154.9731,23.35,98,100,2.06,US,1702276320
78,punta arenas,-53.15,-70.9167,3.06,75,0,3.6,CL,1702276320
79,obock,12.25,43.0833,22.63,59,40,8.52,DJ,1702276320
80,farasan,16.7022,42.1183,27.13,73,27,7.48,SA,1702276320
81,renfrew,55.872,-4.3925,6.2,94,100,1.03,GB,1702276320
82,dampit,-8.2116,112.7493,28.22,63,81,3.14,ID,1702276320
83,kavieng,-2.5744,150.7967,27.69,78,100,1.35,PG,1702276320
84,papatowai,-46.5619,169.4708,10.72,86,100,6.74,NZ,1702276320
85,aberdeen,57.1437,-2.0981,6.27,95,100,4.63,GB,1702276320
86,rongelap,11.1635,166.8941,27.51,81,97,8.75,MH,1702276320
87,nikolayevsk-on-amure,53.1406,140.73,-20.76,89,100,7.01,RU,1702276320
88,klyuchi,52.2667,79.1667,-20.15,80,79,4.58,RU,1702276320
89,fort irwin,35.2627,-116.6848,2.9,19,100,0.58,US,1702276321
90,constantia,44.1833,28.65,0.39,75,96,4.07,RO,1702276321
91,point fortin,10.1833,-61.6833,27.16,87,2,5.22,TT,1702276321
92,horta,38.5333,-28.6333,16.12,78,4,4.02,PT,1702276321
93,thompson,55.7435,-97.8558,-11.91,85,100,2.57,CA,1702276321
94,petropavlovsk-kamchatsky,53.0452,158.6483,-1.67,86,75,3.0,RU,1702276321
95,destin,30.3935,-86.4958,8.11,72,0,6.69,US,1702276321
96,bereznik,62.8551,42.7072,-13.48,93,100,4.7,RU,1702276322
97,batang,-6.4846,110.7083,30.94,62,37,3.9,ID,1702276322
98,greymouth,-42.4667,171.2,12.8,67,96,4.99,NZ,1702276322
99,grenada,37.1882,-3.6067,4.97,87,0,1.03,ES,1702276322
100,haiku-pauwela,20.9219,-156.3051,25.02,81,0,3.6,US,1702276322
101,san ignacio de velasco,-16.3667,-60.95,21.76,98,100,1.69,BO,1702276322
102,ilulissat,69.2167,-51.1,-1.99,59,100,7.72,GL,1702276322
103,axim,4.8699,-2.2405,26.41,81,1,0.81,GH,1702276322
104,phang nga,8.4509,98.5298,32.02,51,85,1.48,TH,1702276323
105,dabou,5.3256,-4.3769,26.11,85,6,1.98,CI,1702276323
106,invercargill,-46.4,168.35,11.1,86,100,8.61,NZ,1702276225
107,prince george,53.9166,-122.753,-2.99,93,100,1.54,CA,1702276323
108,mar del plata,-38.0023,-57.5575,18.3,88,8,0.45,AR,1702276207
109,lewistown,40.5992,-77.5714,2.67,96,100,2.57,US,1702276116
110,igarka,67.4667,86.5833,-27.86,98,100,3.27,RU,1702276323
111,oranjemund,-28.55,16.4333,19.36,68,0,4.15,NA,1702276323
112,soio,-6.1349,12.3689,27.77,73,99,1.85,AO,1702276324
113,keita,14.7551,5.7749,17.49,25,5,8.06,NE,1702276324
114,fort bragg,35.139,-79.006,7.91,88,100,6.17,US,1702276324
115,badger,64.8,-147.5333,-17.58,81,100,2.06,US,1702276324
116,isafjordur,66.0755,-23.124,-0.47,89,94,4.21,IS,1702276324
117,ghadamis,30.1337,9.5007,10.03,66,5,2.28,LY,1702276324
118,bogo,11.0517,124.0055,29.72,66,100,2.76,PH,1702276324
119,pangody,65.85,74.4859,-30.54,94,100,4.16,RU,1702276324
120,nar'yan-mar,67.6713,53.087,-19.19,88,100,8.55,RU,1702276325
121,the pas,53.8251,-101.2541,-6.99,93,100,3.6,CA,1702276325
122,monterey,36.2505,-121.2516,7.87,45,100,1.3,US,1702276259
123,kirillov,59.863,38.3813,-11.99,92,100,4.09,RU,1702276325
124,arteche,12.2645,125.4048,27.48,84,98,3.23,PH,1702276325
125,saldanha,-33.0117,17.9442,20.03,72,0,6.77,ZA,1702276325
126,letlhakeng,-24.0944,25.0298,23.13,60,88,5.79,BW,1702276325
127,masterton,-40.9597,175.6575,14.94,67,0,2.97,NZ,1702276325
128,kayyerkan,69.3786,87.7439,-28.17,75,100,3.89,RU,1702276325
129,san antonio de pale,-1.4014,5.6325,27.53,78,53,6.31,GQ,1702276326
130,pasuquin,18.3328,120.6177,29.97,79,40,3.09,PH,1702276326
131,prineville,44.2999,-120.8345,7.95,92,100,0.0,US,1702276326
132,miri,4.4148,114.0089,30.08,74,40,2.57,MY,1702276326
133,yakeshi,49.2833,120.7333,-30.02,99,96,0.6,CN,1702276326
134,vorgashor,67.5833,63.95,-24.65,100,100,4.05,RU,1702276326
135,luderitz,-26.6481,15.1594,23.38,45,0,6.54,NA,1702276326
136,marsh harbour,26.5412,-77.0636,24.72,86,100,10.0,BS,1702276326
137,kalmunai,7.4167,81.8167,29.06,71,27,3.84,LK,1702276326
138,selfoss,63.9331,-20.9971,-0.53,97,100,1.32,IS,1702276326
139,mount gambier,-37.8333,140.7667,18.51,85,100,6.1,AU,1702276163
140,miles city,46.4083,-105.8406,-0.46,80,0,2.06,US,1702276327
141,jutai,-5.1833,-68.9,23.09,99,63,0.35,BR,1702276327
142,ketchikan,55.3422,-131.6461,2.99,93,0,0.0,US,1702276327
143,taltal,-25.4,-70.4833,16.19,84,7,0.55,CL,1702276221
144,tura,25.5198,90.2201,23.49,47,0,1.22,IN,1702276327
145,gambela,8.25,34.5833,32.59,35,29,1.93,ET,1702276327
146,ad dawadimi,24.5077,44.3924,16.64,19,100,4.36,SA,1702276327
147,dombarovskiy,50.7587,59.5386,-21.67,91,100,4.92,RU,1702276327
148,nishinoomote,30.7333,131.0,20.31,100,75,6.17,JP,1702276327
149,dauphin,51.1494,-100.0502,-5.92,86,0,3.09,CA,1702276328
150,lido di ostia,41.7321,12.2765,12.24,56,20,3.6,IT,1702276328
151,ad-damazin,11.7891,34.3592,30.21,20,19,2.8,SD,1702276328
152,kluczbork,50.9728,18.2182,3.19,93,100,7.52,PL,1702276328
153,bilibino,68.0546,166.4372,-19.52,95,100,1.8,RU,1702276328
154,georgetown,5.4112,100.3354,31.96,70,20,4.63,MY,1702276328
155,miranda,3.2499,-76.2281,20.07,84,65,1.92,CO,1702276328
156,grand baie,-20.0182,57.5802,29.26,73,34,3.13,MU,1702276328
157,vilyuchinsk,52.9306,158.4028,-0.85,85,89,4.98,RU,1702276257
158,balikpapan,-1.2675,116.8289,29.55,74,20,1.54,ID,1702276329
159,port elizabeth,-33.918,25.5701,22.83,64,0,3.09,ZA,1702276045
160,choyr,46.3611,108.3611,-15.89,88,100,2.34,MN,1702276329
161,zapala,-38.8992,-70.0544,19.29,33,61,4.74,AR,1702276329
162,zouerate,22.7187,-12.4521,15.07,24,0,5.52,MR,1702276329
163,turkeli,41.9476,34.3386,11.98,62,100,0.62,TR,1702276329
164,ozu,33.5,132.55,15.79,86,95,5.22,JP,1702276329
165,volchikha,52.0333,80.3833,-21.12,86,88,1.79,RU,1702276329
166,cabo san lucas,22.8909,-109.9124,21.53,71,0,1.12,MX,1702276104
167,fale old settlement,-9.3852,-171.2468,28.27,82,100,9.07,TK,1702276330
168,koesan,36.8108,127.7947,10.55,86,100,6.4,KR,1702276330
169,aasiaat,68.7098,-52.8699,-3.39,94,100,5.73,GL,1702276330
170,karratha,-20.7377,116.8463,33.67,16,2,5.99,AU,1702276169
171,yanchep,-31.55,115.6833,34.45,26,0,3.27,AU,1702276330
172,berdigestyakh,62.0989,126.6992,-27.7,94,100,4.04,RU,1702276330
173,san luis de la loma,17.2706,-100.8939,25.84,73,100,1.71,MX,1702276330
174,vung tau,10.346,107.0843,28.82,69,99,7.13,VN,1702276330
175,hauterive,46.0901,3.4459,16.42,88,100,4.82,FR,1702276330
176,sarupathar,26.1984,93.8094,22.12,62,4,2.01,IN,1702276331
177,ar rutbah,33.0381,40.2848,15.48,49,100,7.4,IQ,1702276331
178,kodiak,57.79,-152.4072,4.73,87,75,2.06,US,1702276331
179,saint-philippe,-21.3585,55.7679,28.77,84,45,4.77,RE,1702276331
180,gizo,-8.103,156.8419,28.02,73,100,2.07,SB,1702276331
181,itaituba,-4.2761,-55.9836,23.09,100,100,0.83,BR,1702276285
182,whitehorse,60.7161,-135.0538,-8.88,79,75,6.71,CA,1702276331
183,villarrobledo,39.2699,-2.6012,9.92,96,26,1.62,ES,1702276331
184,ardakan,32.31,54.0175,17.66,17,99,0.42,IR,1702276331
185,marka,1.7159,44.7717,29.61,66,72,6.03,SO,1702276331
186,cockburn town,21.4612,-71.1419,26.38,71,0,9.84,TC,1702276332
187,puerto eldorado,-26.4084,-54.6946,19.36,100,35,0.58,AR,1702276276
188,amga,60.8953,131.9608,-27.13,94,100,3.23,RU,1702276332
189,olavarria,-36.8927,-60.3225,14.18,83,1,4.14,AR,1702276276
190,kerikeri,-35.2268,173.9474,19.95,63,42,0.89,NZ,1702276332
191,tazovsky,67.4667,78.7,-22.78,97,100,5.09,RU,1702276332
192,carnaiba,-8.7,-37.6667,23.76,62,100,1.82,BR,1702276332
193,chanasma,23.7167,72.1167,26.57,31,0,1.2,IN,1702276333
194,hithadhoo,-0.6,73.0833,28.21,75,54,3.81,MV,1702276333
195,kingston,17.997,-76.7936,26.53,83,20,4.12,JM,1702276118
196,vila velha,-20.3297,-40.2925,22.97,95,75,2.57,BR,1702276082
197,ushuaia,-54.8,-68.3,3.81,75,0,2.06,AR,1702276333
198,san clemente,33.427,-117.612,18.68,33,100,0.83,US,1702276206
199,brookings,44.3114,-96.7984,-6.01,82,0,2.57,US,1702276333
200,jamestown,42.097,-79.2353,2.77,96,100,3.6,US,1702276334
201,osakarovka,50.565,72.5692,-23.52,84,100,6.3,KZ,1702276334
202,yelizovo,53.1873,158.3805,-0.92,86,75,3.0,RU,1702276334
203,ust'-kut,56.7938,105.7672,-28.65,89,29,0.45,RU,1702276334
204,ben gardane,33.1378,11.2197,13.71,50,1,3.9,TN,1702276334
205,es castell,39.8795,4.2854,15.38,100,40,3.09,ES,1702276334
206,naze,28.3667,129.4833,24.51,80,3,5.33,JP,1702276335
207,jabat,7.75,168.9751,27.65,80,68,10.12,MH,1702276335
208,fada,9.5667,8.3,20.59,28,44,3.37,NG,1702276335
209,sechura,-5.5569,-80.8222,21.14,77,1,4.99,PE,1702276335
210,tobruk,32.0836,23.9764,14.4,68,18,6.8,LY,1702276335
211,kondapalle,16.6167,80.5333,28.47,49,6,1.23,IN,1702276335
212,puerto leguizamo,-0.1934,-74.7819,22.17,99,46,0.94,CO,1702276335
213,kupino,54.3663,77.2981,-25.96,94,30,4.64,RU,1702276335
214,tazacorte,28.629,-17.9293,19.53,46,0,4.92,ES,1702276335
215,trairi,-3.2778,-39.2689,26.39,73,22,4.65,BR,1702276106
216,margaret river,-33.95,115.0667,22.92,41,0,5.35,AU,1702276335
217,port mathurin,-19.6833,63.4167,28.05,78,75,5.14,MU,1702276336
218,bentota,6.4254,79.9948,28.3,74,51,2.73,LK,1702276336
219,birjand,32.8663,59.2211,13.26,28,66,0.0,IR,1702276336
220,pisco,-13.7,-76.2167,20.03,77,0,0.51,PE,1702276336
221,touros,-5.1989,-35.4608,26.28,73,0,4.14,BR,1702276336
222,dindima,10.2263,10.1513,18.61,31,6,3.8,NG,1702276336
223,launceston,-41.45,147.1667,27.8,32,100,6.69,AU,1702276336
224,port lincoln,-34.7333,135.8667,19.14,75,57,2.86,AU,1702276337
225,hastings,50.8552,0.5729,11.55,74,99,9.73,GB,1702276337
226,maxixe,-23.8597,35.3472,30.9,79,40,5.14,MZ,1702276337
227,conceicao das alagoas,-19.9147,-48.3883,22.88,90,100,3.14,BR,1702276337
228,kujang-up,39.8672,126.0303,1.18,99,100,1.63,KP,1702276337
229,ivins,37.1686,-113.6794,2.62,26,100,1.65,US,1702276338
230,fecamp,49.7579,0.3746,11.84,87,67,9.49,FR,1702276338
231,lompoc,34.6391,-120.4579,15.51,77,0,2.57,US,1702276338
232,kone,-21.0595,164.8658,25.98,60,79,4.4,NC,1702276338
233,choibalsan,48.0667,114.5,-18.74,83,100,2.04,MN,1702276338
234,kapuskasing,49.4169,-82.4331,-8.95,86,100,4.63,CA,1702276202
235,hammerfest,70.6634,23.6821,-2.75,74,75,4.12,NO,1702276339
236,shimanovsk,52.0,127.7,-20.97,70,2,4.23,RU,1702276339
237,udachny,66.4167,112.4,-25.62,96,100,4.79,RU,1702276339
238,uturoa,-16.7333,-151.4333,27.16,79,31,9.99,PF,1702276339
239,cherepovets,59.1333,37.9,-14.1,85,75,3.0,RU,1702276339
240,emkhomazi,-30.2067,30.7978,19.93,84,100,0.63,ZA,1702276339
241,tibanbang,6.6315,126.1055,28.18,75,91,2.71,PH,1702276340
242,dudinka,69.4058,86.1778,-27.96,97,100,6.71,RU,1702276340
243,at taj,24.2049,23.2857,13.69,49,0,3.79,LY,1702276340
244,yuzha,56.5831,42.0122,-10.37,93,100,5.11,RU,1702276340
245,tolanaro,-25.0319,46.9987,30.04,70,20,6.17,MG,1702276340
246,borogontsy,62.6683,131.1683,-31.23,95,100,2.59,RU,1702276340
247,pankovka,58.5,31.1999,-9.94,94,100,4.06,RU,1702276341
248,kailua-kona,19.6406,-155.9956,27.55,81,0,1.54,US,1702276070
249,sisimiut,66.9395,-53.6735,-3.24,92,100,7.12,GL,1702276341
250,port isabel,26.0734,-97.2086,8.02,71,0,2.57,US,1702276341
251,furmanov,57.2508,41.1058,-11.12,93,100,6.19,RU,1702276341
252,kaa-khem,51.6833,94.7333,-30.33,95,80,0.94,RU,1702276341
253,usinsk,65.9939,57.5281,-24.96,97,100,6.71,RU,1702276341
254,copala,16.65,-98.9833,24.89,80,65,1.59,MX,1702276342
255,el calafate,-50.3408,-72.2768,6.9,77,73,3.15,AR,1702276342
256,galliano,29.4422,-90.2992,8.33,75,0,2.06,US,1702276342
257,la ronge,55.1001,-105.2842,-4.86,74,0,4.12,CA,1702276342
258,hobyo,5.3505,48.5268,27.36,74,100,7.95,SO,1702276342
259,formosa do rio preto,-11.0483,-45.1931,22.59,84,91,1.12,BR,1702276342
260,aripuana,-9.1667,-60.6333,23.06,98,91,0.49,BR,1702276342
261,flin flon,54.7682,-101.865,-8.23,92,100,3.57,CA,1702276342
262,andilamena,-17.0167,48.5833,25.91,60,73,3.96,MG,1702276343
263,alvorada,-12.48,-49.1247,22.78,86,99,1.57,BR,1702276343
264,tralee,52.2704,-9.7026,6.45,95,24,2.32,IE,1702276343
265,kourou,5.1552,-52.6478,25.03,92,63,3.01,GF,1702276207
266,sao joao de pirabas,-0.7747,-47.1772,26.13,80,42,4.26,BR,1702276343
267,labrador city,52.9463,-66.9114,-1.05,86,100,6.17,CA,1702276343
268,trusesti,47.7667,27.0167,-1.33,89,100,2.62,RO,1702276343
269,utrik,11.2278,169.8474,27.33,81,80,9.46,MH,1702276343
270,san rafael,-34.6177,-68.3301,23.46,37,13,6.73,AR,1702276236
271,kasongo-lunda,-6.4667,16.8167,23.42,94,100,1.1,CD,1702276343
272,keflavik,64.0049,-22.5624,2.24,87,75,3.6,IS,1702276344
273,crane,31.3974,-102.3501,7.14,29,0,2.76,US,1702276344
274,lebanon,36.2081,-86.2911,0.43,91,100,0.0,US,1702276344
275,gereida,11.2811,25.1414,28.19,14,9,1.94,SD,1702276344
276,east london,-33.0153,27.9116,20.52,77,20,3.09,ZA,1702276344
277,whangarei,-35.7317,174.3239,15.71,66,0,3.32,NZ,1702276344
278,howrah,22.5892,88.3103,24.0,46,0,3.6,IN,1702276344
279,tadine,-21.55,167.8833,23.13,66,33,6.9,NC,1702276344
280,galle,6.0367,80.217,28.73,70,98,2.05,LK,1702276344
281,callao,-12.0667,-77.15,20.4,82,20,4.12,PE,1702276344
282,mount isa,-20.7333,139.5,34.87,29,0,3.09,AU,1702276345
283,macae,-22.3708,-41.7869,20.86,94,100,1.54,BR,1702276082
284,tan-tan,28.438,-11.1032,19.97,30,0,3.09,MA,1702276345
285,boda,4.3189,17.4695,25.85,50,100,1.07,CF,1702276345
286,mata-utu,-13.2816,-176.1745,28.51,74,56,5.54,WF,1702276345
287,magdagachi,53.45,125.8,-21.84,68,0,4.57,RU,1702276345
288,yenifakili,39.2114,35.0004,6.93,72,100,1.56,TR,1702276345
289,jayapura,-2.5333,140.7,32.66,82,69,4.98,ID,1702276345
290,boromo,11.75,-2.9333,20.55,16,1,2.9,BF,1702276345
291,daru,-9.0763,143.2092,30.96,61,91,3.74,PG,1702276346
292,i-n-salah,27.1935,2.4607,12.55,57,0,7.24,DZ,1702276346
293,champerico,14.3,-91.9167,26.05,77,73,0.91,GT,1702276346
294,suva,-18.1416,178.4415,26.71,61,40,4.12,FJ,1702276090
295,mandan,46.8267,-100.8896,-7.02,95,0,3.09,US,1702276346
296,itaqui,-29.1253,-56.5531,16.8,95,0,3.69,BR,1702276346
297,alice springs,-23.7,133.8833,24.75,27,45,4.12,AU,1702276101
298,nagqu,31.5,92.0,-7.05,13,75,3.05,CN,1702276346
299,darwin,-12.4611,130.8418,32.72,75,75,4.92,AU,1702276026
300,kiunga,-6.1219,141.2906,28.1,92,99,0.53,PG,1702276346
301,bandarbeyla,9.4942,50.8122,27.38,60,7,10.72,SO,1702276346
302,barabai,-2.5833,115.3833,32.04,57,100,1.29,ID,1702276347
303,acacias,3.987,-73.758,20.47,88,100,2.49,CO,1702276347
304,zhangye,38.9342,100.4517,9.25,18,0,8.91,CN,1702276347
305,al kharijah,25.4514,30.5464,20.28,25,0,2.9,EG,1702276347
306,ilomantsi,62.6716,30.9328,-12.95,96,93,2.91,FI,1702276347
307,kavaratti,10.5669,72.642,28.4,73,100,1.32,IN,1702276347
308,uniao da vitoria,-26.23,-51.0864,16.0,99,93,0.16,BR,1702276347
309,tippi,7.2,35.45,26.92,49,78,0.62,ET,1702276347
310,geraldton,-28.7667,114.6,37.23,7,0,5.66,AU,1702276347
311,qaqortoq,60.7167,-46.0333,-9.36,73,30,3.6,GL,1702276347
312,enewetak,11.3474,162.3373,28.35,71,92,8.53,MH,1702276348
313,usagara,-2.6833,33.0,21.98,73,99,0.47,TZ,1702276348
314,bamboo flat,11.7,92.7167,31.05,70,40,4.12,IN,1702276348
315,gamba,-2.65,10.0,24.2,95,100,2.25,GA,1702276348
316,lampa,-33.2833,-70.9,20.21,88,100,3.09,CL,1702276348
317,aykhal,66.0,111.5,-27.66,99,100,2.19,RU,1702276348
318,maloye ganyushkino,46.6,49.2667,-1.93,55,44,8.53,KZ,1702276348
319,filadelfia,39.9523,-75.1638,8.01,92,100,9.26,US,1702276147
320,sterling,39.0062,-77.4286,3.0,89,100,6.17,US,1702276172
321,fengxiang,47.5833,130.8333,-18.64,77,0,3.19,CN,1702276348
322,chervyen',53.7059,28.4313,-2.83,95,100,5.97,BY,1702276349
323,tamandare,-8.7597,-35.1047,25.19,80,1,2.73,BR,1702276140
324,colonia,50.9333,6.95,11.13,77,75,7.72,DE,1702276349
325,kununurra,-15.7667,128.7333,33.99,40,40,3.6,AU,1702276349
326,plainview,40.7765,-73.4673,10.96,90,100,6.69,US,1702276349
327,knjazevac,43.5648,22.2502,3.83,94,100,0.89,RS,1702276349
328,kathmandu,27.7167,85.3167,18.12,48,20,1.03,NP,1702276109
329,holualoa,19.6228,-155.9522,25.48,80,0,1.54,US,1702276349
330,broken hill,-31.95,141.4333,34.7,24,98,8.57,AU,1702276349
331,st. john's,47.5649,-52.7093,1.2,94,75,5.14,CA,1702276350
332,conception bay south,47.4999,-52.9981,1.07,95,100,5.58,CA,1702276350
333,la mira,18.035,-102.3266,25.99,66,100,1.83,MX,1702276350
334,hargeysa,9.56,44.065,19.93,47,6,6.19,SO,1702276350
335,sur,22.5667,59.5289,26.08,47,100,2.24,OM,1702276350
336,hasaki,35.7333,140.8333,15.22,79,99,9.12,JP,1702276350
337,byron bay,-28.65,153.6167,28.17,59,0,4.24,AU,1702276350
338,claveria,18.6074,121.0832,29.4,73,39,5.01,PH,1702276350
339,quellon,-43.1167,-73.6167,10.18,94,98,1.63,CL,1702276344
340,buka,40.8108,69.1986,7.04,43,100,2.29,UZ,1702276350
341,dolores,-36.3132,-57.6792,14.77,93,1,3.38,AR,1702276351
342,segorbe,39.8138,-0.4521,12.33,77,0,2.93,ES,1702276351
343,bardai,11.65,7.2333,15.98,32,0,6.64,NG,1702276351
344,tahe,52.3333,124.7333,-20.18,68,0,2.75,CN,1702276351
345,sohar,24.3643,56.7468,23.01,56,96,0.0,OM,1702276351
346,port blair,11.6667,92.75,31.02,70,40,4.12,IN,1702276351
347,ndende,-2.4008,11.3581,23.57,98,100,0.54,GA,1702276351
348,falenki,58.3613,51.5946,-21.75,93,100,4.36,RU,1702276351
349,susuman,62.7833,148.1667,-21.68,96,100,2.24,RU,1702276351
350,bannu,32.9854,70.6027,20.18,14,0,0.62,PK,1702276352
351,lerwick,60.1545,-1.1494,7.0,76,97,6.48,GB,1702276352
352,lodja,-3.4833,23.4333,23.33,90,100,0.96,CD,1702276352
353,buala,-8.145,159.5921,28.21,75,78,1.4,SB,1702276352
354,zuunmod,47.7069,106.9528,-19.43,92,100,1.5,MN,1702276352
355,kovdor,67.5662,30.4758,-15.73,95,92,2.2,RU,1702276352
356,auce,56.4598,22.9017,-3.12,96,100,4.33,LV,1702276352
357,afaahiti,-17.75,-149.2833,26.93,81,52,10.32,PF,1702276353
358,yashkul',46.1711,45.3435,-1.38,80,100,7.92,RU,1702276353
359,laranjeiras do sul,-25.4078,-52.4161,16.53,96,95,0.49,BR,1702276353
360,lihue,21.9789,-159.3672,24.09,87,40,4.63,US,1702276189
361,pascagoula,30.3658,-88.5561,7.02,91,0,1.54,US,1702276353
362,tymovskoye,50.8456,142.655,-16.38,95,100,2.34,RU,1702276353
363,zhangatas,43.5667,69.75,-7.0,87,100,3.3,KZ,1702276353
364,peniche,39.3558,-9.3811,14.4,92,89,4.52,PT,1702276353
365,orchard homes,46.8633,-114.0484,0.77,93,100,0.0,US,1702276354
366,remire-montjoly,4.9167,-52.2667,25.02,94,75,0.0,GF,1702276354
367,sinop,41.7711,34.8709,3.24,73,100,3.39,TR,1702276354
368,piacabucu,-10.4056,-36.4344,25.06,79,0,3.56,BR,1702276354
369,sola,-13.8833,167.55,27.37,20,100,2.57,VU,1702276354
370,coron,11.9986,120.2043,31.08,57,15,1.77,PH,1702276354
371,at taraf,25.3628,49.725,20.3,13,62,2.4,SA,1702276354
372,neryungri,56.6709,124.6491,-30.72,93,100,3.0,RU,1702276354
373,caleta de carquin,-11.0925,-77.6267,19.34,87,43,4.24,PE,1702276354
374,duluth,46.7833,-92.1066,-4.69,87,100,3.6,US,1702276354
375,vadso,70.0744,29.7487,-8.91,79,40,12.35,NO,1702276354
376,vorkuta,67.5,64.0,-24.55,100,100,3.93,RU,1702276355
377,moyynkum,44.2914,72.9469,-5.96,89,100,2.56,KZ,1702276355
378,avenal,36.0041,-120.129,2.87,60,100,0.89,US,1702276355
379,torquay,50.4638,-3.5143,10.32,87,2,1.79,GB,1702276337
380,faya-largeau,17.9257,19.1043,18.64,33,0,11.93,TD,1702276355
381,arraial do cabo,-22.9661,-42.0278,22.77,82,100,8.59,BR,1702276355
382,cuyo,10.8525,121.0086,27.92,79,71,8.44,PH,1702276355
383,katsuren-haebaru,26.3369,127.8719,27.21,67,75,5.66,JP,1702276355
384,lycksele,64.5954,18.6735,-8.07,93,100,2.06,SE,1702276355
385,yaren,-0.5472,166.916,28.57,75,41,2.11,NR,1702276356
386,candido mendes,-1.4467,-45.7167,25.53,84,76,2.83,BR,1702276356
387,rudnyy,52.9594,63.1206,-31.87,92,91,5.8,KZ,1702276356
388,kasane,-17.8167,25.15,21.05,83,0,6.17,BW,1702276356
389,northfield,44.4583,-93.1616,-4.79,85,100,0.45,US,1702276356
390,colares,38.7992,-9.4469,15.18,96,34,4.02,PT,1702276356
391,dickson,36.077,-87.3878,-1.65,96,100,0.0,US,1702276356
392,timbuktu,16.7735,-3.0074,17.94,23,0,5.0,ML,1702276356
393,hotan,37.0997,79.9269,4.95,25,70,2.99,CN,1702276356
394,kirov,58.5966,49.6601,-24.12,96,100,2.68,RU,1702276356
395,bereeda,11.8704,51.0579,26.42,60,6,6.11,SO,1702276356
396,tucupita,9.0622,-62.051,22.4,99,29,1.12,VE,1702276357
397,senador jose porfirio,-2.5908,-51.9542,24.11,96,100,1.67,BR,1702276357
398,khash,28.2211,61.2158,17.57,14,50,2.06,IR,1702276357
399,abu jibeha,11.4562,31.2285,30.62,14,100,2.53,SD,1702276357
400,salgareda,45.705,12.4883,5.2,99,100,2.88,IT,1702276357
401,bikenibeu village,1.3673,173.1241,27.98,89,75,1.03,KI,1702276357
402,santa cruz,-17.8,-63.1667,25.7,78,75,7.2,BO,1702276205
403,hermanus,-34.4187,19.2345,19.2,59,4,2.47,ZA,1702276357
404,damara,4.9608,18.7035,26.04,46,93,1.58,CF,1702276357
405,qulsary,46.9531,54.0198,-8.81,30,19,8.0,KZ,1702276357
406,amungan,15.3652,119.9582,29.19,67,12,3.28,PH,1702276357
407,garachico,28.7781,-17.7646,18.05,59,0,3.09,ES,1702276358
408,port saint john's,-31.6229,29.5448,18.78,86,100,1.14,ZA,1702276358
409,inhambane,-23.865,35.3833,30.99,79,40,5.14,MZ,1702276358
410,romentino,45.464,8.719,6.71,99,100,0.51,IT,1702276358
411,berezovo,63.9381,65.0419,-31.91,97,81,3.29,RU,1702276358
412,awjilah,29.1081,21.2869,14.99,71,33,7.22,LY,1702276358
413,kushiro,42.975,144.3747,0.53,40,75,2.57,JP,1702276358
414,mokopane,-24.1944,29.0097,18.28,92,100,2.43,ZA,1702276358
415,tofol,5.3248,163.0078,28.88,79,75,2.57,FM,1702276358
416,zhuanghe,39.7008,122.9911,-5.73,95,100,5.53,CN,1702276358
417,leirvik,59.7798,5.5005,1.59,58,100,3.65,NO,1702276358
418,villa gesell,-37.2639,-56.973,17.25,88,3,4.62,AR,1702276359
419,vernon,50.2581,-119.2691,2.39,92,100,1.79,CA,1702276219
420,mahanoro,-19.9,48.8,29.69,64,95,3.34,MG,1702276359
421,morondava,-20.2833,44.2833,30.7,60,17,3.47,MG,1702276359
422,macusani,-14.0833,-70.4333,2.55,92,100,1.42,PE,1702276359
423,shimoda,34.6667,138.95,16.2,77,100,4.79,JP,1702276359
424,el tigre,8.8875,-64.2454,22.69,92,17,3.88,VE,1702276359
425,sitka,57.0531,-135.33,5.94,56,75,5.66,US,1702276359
426,robertsport,6.7533,-11.3686,26.83,82,40,2.71,LR,1702276359
427,luwuk,-0.9516,122.7875,31.17,64,89,1.16,ID,1702276359
428,shiyan,32.6475,110.7781,3.94,87,100,1.49,CN,1702276077
429,twin falls,42.3505,-114.6445,0.52,86,100,2.06,US,1702276345
430,hirson,49.9226,4.0826,9.36,80,100,7.88,FR,1702276360
431,al wajh,26.2455,36.4525,23.97,53,0,1.54,SA,1702276360
432,bansang,13.4333,-14.65,21.44,19,100,2.08,GM,1702276360
433,broome,42.2506,-75.833,1.68,97,100,0.45,US,1702276360
434,verkhnevilyuysk,63.4453,120.3167,-27.49,96,100,3.06,RU,1702276360
435,leava,-14.3,-178.1667,27.59,68,90,6.8,WF,1702276360
436,san julian,21.0167,-102.1667,12.94,64,100,2.91,MX,1702276360
437,sao joao dos patos,-6.495,-43.7022,21.48,95,57,1.31,BR,1702276072
438,hengchun,22.0042,120.7439,27.23,76,13,4.77,TW,1702276360
439,abancay,-13.6339,-72.8814,15.1,93,80,1.22,PE,1702276360
440,cole harbour,44.6724,-63.4751,12.66,97,100,3.13,CA,1702276360
441,sandnessjoen,66.0217,12.6316,-3.1,68,0,1.54,NO,1702276360
442,cofradia,15.4,-88.15,24.49,99,31,1.07,HN,1702276361
443,araxa,-19.5933,-46.9406,19.98,100,94,2.57,BR,1702276204
444,usogorsk,63.4106,48.6872,-20.74,93,100,5.12,RU,1702276361
445,newman,37.3138,-121.0208,7.38,61,100,1.51,US,1702276361
446,dubbo,-32.25,148.6167,37.07,18,0,3.09,AU,1702276283
447,cannonvale,-20.2833,148.7,24.66,91,100,12.32,AU,1702276361
448,akureyri,65.6835,-18.0878,-11.04,92,0,0.0,IS,1702276361
449,thunder bay,48.4001,-89.3168,-5.01,68,100,1.54,CA,1702276229
450,andratx,39.5755,2.4202,14.42,86,30,2.98,ES,1702276361
451,bubaque,11.2833,-15.8333,27.37,51,40,4.03,GW,1702276361
452,winnemucca,40.973,-117.7357,-6.97,86,0,1.54,US,1702276361
453,zeya,53.75,127.2667,-23.06,65,0,2.51,RU,1702276362
454,lakatoro,-16.0999,167.4164,25.53,67,100,6.36,VU,1702276362
455,santa terezinha,-29.9002,-50.0904,20.14,91,93,5.29,BR,1702276362
456,ancud,-41.8697,-73.8203,11.9,88,100,1.66,CL,1702276362
457,strezhevoy,60.7333,77.5889,-31.69,99,18,2.24,RU,1702276338
458,sabha,27.0377,14.4283,10.89,77,0,3.52,LY,1702276362
459,bonito,-21.1211,-56.4819,20.19,99,73,0.17,BR,1702276362
460,baiti,13.745,-14.7482,22.16,19,91,3.31,SN,1702276362
461,reggane,26.7158,0.1714,13.47,54,0,5.25,DZ,1702276362
462,hisai-motomachi,34.6667,136.4667,16.05,74,99,1.24,JP,1702276362
463,praia da vitoria,38.7333,-27.0667,17.09,94,0,5.29,PT,1702276362
464,rampura,30.25,75.2333,23.51,15,0,1.0,IN,1702276363
465,sarikei,2.1167,111.5167,28.91,82,92,1.5,MY,1702276363
466,rehoboth,-23.3167,17.0833,22.41,17,0,5.71,NA,1702276363
467,flying fish cove,-10.4217,105.6791,27.82,69,75,4.63,CX,1702276363
468,bandiagara,14.3501,-3.6104,19.9,20,0,4.46,ML,1702276363
469,esquel,-42.9,-71.3167,9.55,89,89,2.37,AR,1702276091
470,chato,-2.6378,31.7669,21.11,83,100,1.92,TZ,1702276363
471,ascension,30.2169,-90.9001,6.7,78,0,0.0,US,1702276364
472,rye,40.9807,-73.6837,8.43,90,100,10.29,US,1702276364
473,waynesville,35.4887,-82.9887,1.25,90,53,3.13,US,1702276201
474,mermoz boabab,14.7065,-17.4758,21.31,66,100,6.18,SN,1702276364
475,la gi,10.6667,107.7833,29.81,61,14,6.98,VN,1702276364
476,san jose del guaviare,2.5729,-72.6459,22.3,98,100,0.79,CO,1702276364
477,strathalbyn,-35.2667,138.9,19.39,98,88,9.62,AU,1702276364
478,vanju-mare,44.4253,22.8697,4.72,85,100,1.67,RO,1702276364
479,aksu,41.1231,80.2644,2.01,40,50,1.24,CN,1702276364
480,vrangel',42.7297,133.0839,-6.76,33,100,3.72,RU,1702276286
481,smara,26.7384,-11.6719,16.46,29,100,4.09,EH,1702276364
482,dumai,1.6833,101.45,31.35,67,91,1.95,ID,1702276365
483,williams lake,52.1415,-122.1445,-1.24,100,100,1.54,CA,1702276365
484,itambacuri,-18.0311,-41.685,21.76,94,100,2.01,BR,1702276365
485,cabugao,17.7931,120.4578,31.05,68,19,2.85,PH,1702276365
486,karanja,20.4833,77.4833,25.7,40,0,1.06,IN,1702276365
487,westport,41.1415,-73.3579,11.05,90,100,7.2,US,1702276346
488,ola,59.5833,151.2833,-3.75,74,100,12.56,RU,1702276365
489,bakaly,55.1789,53.8028,-24.14,94,100,1.55,RU,1702276365
490,mitha tiwana,32.2486,72.1108,21.73,15,0,0.95,PK,1702276366
491,felipe carrillo puerto,19.5833,-88.05,20.06,99,100,1.43,MX,1702276366
492,preobrazheniye,42.9019,133.9064,-6.69,41,100,1.96,RU,1702276366
493,sao joao da barra,-21.6403,-41.0511,22.36,89,84,3.62,BR,1702276366
494,rocca priora,41.7786,12.7482,8.91,62,0,3.13,IT,1702276366
495,smithers,54.7804,-127.1743,-3.82,100,100,0.0,CA,1702276366
496,timbiqui,2.7717,-77.6654,24.55,96,94,1.87,CO,1702276366
497,alaghsas,17.0187,8.0168,14.94,41,0,4.63,NE,1702276366
498,sheki,41.1919,47.1706,9.04,70,13,3.74,AZ,1702276367
499,shahdol,23.2833,81.35,23.32,41,0,1.85,IN,1702276367
500,lata,40.1629,-8.3327,13.93,93,65,1.88,PT,1702276367
501,turkmenbasy,40.0222,52.9552,4.43,93,100,3.09,TM,1702276367
502,vanino,49.0869,140.2543,-18.37,65,2,5.92,RU,1702276340
503,mugia,43.1041,-9.2179,18.28,86,100,11.3,ES,1702276367
504,sandakan,5.8402,118.1179,27.82,83,20,2.57,MY,1702276367
505,moose jaw,50.4001,-105.5344,-4.86,86,34,3.6,CA,1702276110
506,guaruja,-23.9931,-46.2564,19.94,26,99,1.09,BR,1702276367
507,paita,-5.0892,-81.1144,20.98,80,5,4.98,PE,1702276367
508,egilsstadir,65.2653,-14.3948,-8.05,93,75,1.54,IS,1702276367
509,ambon,-3.6954,128.1814,34.08,52,40,4.12,ID,1702276367
510,palu,-0.8917,119.8707,29.62,77,84,1.92,ID,1702276367
511,madalena,41.2162,-8.3345,15.32,95,100,2.07,PT,1702276368
512,tangalle,6.024,80.7911,31.09,67,100,2.66,LK,1702276368
513,manay,7.215,126.5397,29.43,71,100,4.95,PH,1702276368
514,minas de marcona,-15.2119,-75.1103,15.03,84,100,4.17,PE,1702276368
515,kasese,0.1833,30.0833,25.66,64,22,1.55,UG,1702276368
516,san-pedro,4.7485,-6.6363,26.11,86,98,2.21,CI,1702276368
517,ghat,24.9647,10.1728,10.63,74,4,2.6,LY,1702276368
518,taytay,14.5678,121.1394,30.96,77,75,2.06,PH,1702276368
519,san patricio,28.017,-97.5169,9.91,27,0,1.77,US,1702276368
520,salinopolis,-0.6136,-47.3561,26.81,80,29,6.08,BR,1702276368
521,saint joseph,39.7686,-94.8466,3.09,66,40,2.57,US,1702276129
522,manokwari,-0.8667,134.0833,28.58,76,100,4.85,ID,1702276368
523,novo aripuana,-5.1206,-60.3797,23.22,99,100,0.21,BR,1702276368
524,saint-pierre,-21.3393,55.4781,28.82,65,0,7.2,RE,1702276369
525,lamar,33.6668,-95.5836,0.99,69,0,0.0,US,1702276369
526,rikaze,29.25,88.8833,3.79,26,15,1.44,CN,1702276369
527,nelson bay,-32.7167,152.15,30.03,79,44,10.28,AU,1702276369
528,manali,13.1667,80.2667,29.05,65,67,5.45,IN,1702276369
529,tataouine,32.9297,10.4518,11.7,47,6,7.25,TN,1702276369
530,cidreira,-30.1811,-50.2056,20.11,89,67,5.23,BR,1702276369
531,vilyuysk,63.7553,121.6247,-27.59,97,100,3.25,RU,1702276369
532,kuta,-8.7233,115.1723,30.0,70,20,5.36,ID,1702276369
533,zag,46.9441,99.165,-16.58,85,100,1.08,MN,1702276369
534,seybaplaya,19.65,-90.6667,22.71,84,100,5.46,MX,1702276369
535,onguday,50.75,86.15,-15.84,64,75,1.34,RU,1702276369
536,altay,47.8667,88.1167,-8.68,64,100,1.1,CN,1702276370
537,ndele,8.4109,20.6473,26.68,19,54,3.23,CF,1702276370
538,sumusta as sultani,28.9167,30.85,19.2,30,0,2.43,EG,1702276370
539,mogadishu,2.0371,45.3438,29.93,79,75,5.66,SO,1702276310
540,ishigaki,24.3448,124.1572,27.07,78,75,4.63,JP,1702276370
541,las khorey,11.1595,48.1967,26.78,62,38,5.5,SO,1702276370
542,patterson,37.4716,-121.1297,8.21,56,100,1.74,US,1702276370
543,santa ana,33.7456,-117.8678,19.69,24,0,0.0,US,1702276210
544,betio village,1.358,172.9211,28.02,77,10,3.02,KI,1702276370
545,hadibu,12.65,54.0333,26.11,58,6,6.85,YE,1702276370
546,nakamura,32.9833,132.9333,15.15,94,100,3.46,JP,1702276370
547,sao felix do xingu,-6.6447,-51.995,22.42,99,52,1.01,BR,1702276370
548,tezu,27.9167,96.1667,25.71,37,0,1.54,IN,1702276370
549,strangnas,59.3774,17.0312,-0.01,97,100,5.12,SE,1702276371
550,howard springs,-12.497,131.047,32.68,79,43,3.21,AU,1702276371
551,dryden,49.7833,-92.7503,-7.84,100,100,3.6,CA,1702276270
552,ghormach,35.7306,63.7826,18.1,23,17,2.4,AF,1702276371
553,savanna-la-mar,18.219,-78.1332,26.97,84,6,1.54,JM,1702276371
554,withernsea,53.7311,0.0335,8.3,83,9,7.3,GB,1702276371
555,fort mcmurray,56.7268,-111.381,-5.23,68,75,8.75,CA,1702276201
556,bosaso,11.2842,49.1816,26.99,69,0,7.2,SO,1702276371
557,san mariano,7.5,126.0,29.04,72,100,1.92,PH,1702276371
558,batu pahat,1.8548,102.9325,28.87,81,100,1.71,MY,1702276371
559,cuatro cienegas de carranza,26.9833,-102.0833,9.26,38,1,1.6,MX,1702276371
560,nynashamn,58.9034,17.9479,1.17,98,100,6.82,SE,1702276371
561,puerto baquerizo moreno,-0.9,-89.6,23.6,88,34,3.79,EC,1702276342
562,acapulco de juarez,16.8634,-99.8901,26.9,94,100,1.54,MX,1702276183
563,ad dabbah,18.05,30.95,24.54,18,100,2.05,SD,1702276372
564,zhezqazghan,47.7833,67.7667,-20.68,71,20,7.0,KZ,1702276372
565,kimberley,-28.7323,24.7623,18.83,72,75,2.06,ZA,1702276372
566,la londe-les-maures,43.1371,6.235,12.51,83,68,4.66,FR,1702276372
567,tam ky,15.5667,108.4833,28.65,68,18,3.96,VN,1702276372
568,santo tome,-31.6627,-60.7653,20.02,77,0,2.96,AR,1702276254
569,saipan,15.1355,145.701,29.39,74,0,5.66,MP,1702276372
570,palikir - national government center,6.9248,158.1611,29.41,74,75,2.06,FM,1702276372
571,katabu,-4.9333,122.5167,30.99,60,100,4.06,ID,1702276372
572,chos malal,-37.3781,-70.2709,19.34,31,0,3.56,AR,1702276372
573,vila franca do campo,37.7167,-25.4333,18.27,99,100,5.12,PT,1702276372
574,novoazovs'k,47.1139,38.086,5.97,91,100,8.35,UA,1702276373
575,namibe,-15.1961,12.1522,22.57,75,21,1.88,AO,1702276373
576,tamanrasset,22.785,5.5228,7.95,29,0,2.06,DZ,1702276373
577,fortuna,40.5982,-124.1573,11.07,92,100,0.45,US,1702276373
578,la palma,33.8464,-118.0467,19.84,41,0,3.09,US,1702276373
579,moyale,3.5167,39.0584,26.09,43,64,5.48,KE,1702276373
580,aioun,16.6614,-9.6149,17.46,23,72,5.23,MR,1702276373
581,katsuura,35.1333,140.3,16.56,70,98,1.43,JP,1702276373
582,sakakah,29.9697,40.2064,14.76,23,100,5.0,SA,1702276373
583,maragogi,-9.0122,-35.2225,24.96,80,0,3.11,BR,1702276373
584,yemetsk,63.4721,41.7941,-13.47,93,100,4.58,RU,1702276374
585,guatire,10.4762,-66.5427,25.11,98,42,0.68,VE,1702276374
